{"au":{"NSW":"New South Wales","QLD":"Queensland","SA":"South Australia","TAS":"Tasmania","VIC":"Victoria","WA":"Western Australia","ACT":"Australian Capital Territory","JBT":"Jervis Bay Territory","NT":"Northern Territory"},"ca":{"AB":"Alberta","BC":"British Columbia","MB":"Manitoba","NB":"New Brunswick","NL":"Newfoundland","NT":"Northwest Territories","NS":"Nova Scotia","NU":"Nunavut","ON":"Ontario","PE":"Prince Edward Island","QC":"Quebec","SK":"Saskatchewan","YT":"Yukon"},"countries":{"US":{"name":"USA","region":"North America","currency":"USD","lat":37.09024,"lon":-95.712891,"borders":["CA","MX"],"tld":["us"]},"CA":{"name":"Canada","region":"North America","currency":"CAD","lat":56.130366,"lon":-106.346771,"borders":["US"],"tld":["ca"]},"GB":{"name":"United Kingdom","region":"Europe","currency":"GBP","lat":55.378051,"lon":-3.435973,"borders":["IE"],"tld":["uk"]},"AF":{"name":"Afghanistan","region":"Asia","currency":"AFN","lat":33.93911,"lon":67.709953,"borders":["CN","IR","PK","TJ","TM","UZ"],"tld":["af"]},"AX":{"name":"\u00c5land Islands","region":"Europe","currency":"EUR","lat":0,"lon":0,"borders":[],"tld":["ax"]},"AL":{"name":"Albania","region":"Europe","currency":"ALL","lat":41.153332,"lon":20.168331,"borders":["GR","ME","MK","XK"],"tld":["al"]},"DZ":{"name":"Algeria","region":"Africa","currency":"DZD","lat":28.033886,"lon":1.659626,"borders":["EH","LY","MA","ML","MR","NE","TN"],"tld":["dz"]},"AS":{"name":"American Samoa","region":"Australia","currency":"USD","lat":-14.270972,"lon":-170.132217,"borders":[],"tld":["as"]},"AD":{"name":"Andorra","region":"Europe","currency":"EUR","lat":42.546245,"lon":1.601554,"borders":["ES","FR"],"tld":["ad"]},"AO":{"name":"Angola","region":"Africa","currency":"AOA","lat":-11.202692,"lon":17.873887,"borders":["CD","CG","NA","ZM"],"tld":["ao"]},"AI":{"name":"Anguilla","region":"North America","currency":"XCD","lat":18.220554,"lon":-63.068615,"borders":[],"tld":["ai"]},"AG":{"name":"Antigua and Barbuda","region":"North America","currency":"XCD","lat":17.060816,"lon":-61.796428,"borders":[],"tld":["ag"]},"AR":{"name":"Argentina","region":"South America","currency":"ARS","lat":-38.416097,"lon":-63.616672,"borders":["BO","BR","CL","PY","UY"],"tld":["ar"]},"AM":{"name":"Armenia","region":"Europe","currency":"AMD","lat":40.069099,"lon":45.038189,"borders":["AZ","GE","IR","TR"],"tld":["am"]},"AW":{"name":"Aruba","region":"South America","currency":"AWG","lat":12.52111,"lon":-69.968338,"borders":[],"tld":["aw"]},"AU":{"name":"Australia","region":"Australia","currency":"AUD","lat":-25.274398,"lon":133.775136,"borders":[],"tld":["au"]},"AT":{"name":"Austria","region":"Europe","currency":"EUR","lat":47.516231,"lon":14.550072,"borders":["CH","CZ","DE","HU","IT","LI","SI","SK"],"tld":["at"]},"AZ":{"name":"Azerbaijan","region":"Asia","currency":"AZN","lat":40.143105,"lon":47.576927,"borders":["AM","GE","IR","RU","TR"],"tld":["az"]},"BS":{"name":"The Bahamas","region":"North America","currency":"BSD","lat":25.03428,"lon":-77.39628,"borders":[],"tld":["bs"]},"BH":{"name":"Bahrain","region":"Asia","currency":"BHD","lat":25.930414,"lon":50.637772,"borders":[],"tld":["bh"]},"BD":{"name":"Bangladesh","region":"Asia","currency":"BDT","lat":23.684994,"lon":90.356331,"borders":["IN","MM"],"tld":["bd"]},"BB":{"name":"Barbados","region":"North America","currency":"BBD","lat":13.193887,"lon":-59.543198,"borders":[],"tld":["bb"]},"BY":{"name":"Belarus","region":"Europe","currency":"BYN","lat":53.709807,"lon":27.953389,"borders":["LT","LV","PL","RU","UA"],"tld":["by"]},"BE":{"name":"Belgium","region":"Europe","currency":"EUR","lat":50.503887,"lon":4.469936,"borders":["DE","FR","LU","NL"],"tld":["be"]},"BZ":{"name":"Belize","region":"North America","currency":"BZD","lat":17.189877,"lon":-88.49765,"borders":["GT","MX"],"tld":["bz"]},"BJ":{"name":"Benin","region":"Africa","currency":"XOF","lat":9.30769,"lon":2.315834,"borders":["BF","NE","NG","TG"],"tld":["bj"]},"BM":{"name":"Bermuda","region":"North America","currency":"BMD","lat":32.321384,"lon":-64.75737,"borders":[],"tld":["bm"]},"BT":{"name":"Bhutan","region":"Asia","currency":"BTN","lat":27.514162,"lon":90.433601,"borders":["CN","IN"],"tld":["bt"]},"BO":{"name":"Bolivia","region":"South America","currency":"BOB","lat":-16.290154,"lon":-63.588653,"borders":["AR","BR","CL","PE","PY"],"tld":["bo"]},"BQ":{"name":"Bonaire, Sint Eustatius and Saba","region":"South America","currency":"USD","lat":0,"lon":0,"borders":[],"tld":["bq","nl"]},"BA":{"name":"Bosnia and Herzegovina","region":"Europe","currency":"BAM","lat":43.915886,"lon":17.679076,"borders":["HR","ME","RS"],"tld":["ba"]},"BW":{"name":"Botswana","region":"Africa","currency":"BWP","lat":-22.328474,"lon":24.684866,"borders":["NA","ZA","ZM","ZW"],"tld":["bw"]},"BR":{"name":"Brazil","region":"South America","currency":"BRL","lat":-14.235004,"lon":-51.92528,"borders":["AR","BO","CO","GF","GY","PE","PY","SR","UY","VE"],"tld":["br"]},"IO":{"name":"British Indian Ocean Territory","region":"Africa","currency":"USD","lat":-6.343194,"lon":71.876519,"borders":[],"tld":["io"]},"VG":{"name":"British Virgin Islands","region":"North America","currency":"USD","lat":18.420695,"lon":-64.639968,"borders":[],"tld":["vg"]},"BN":{"name":"Brunei","region":"Asia","currency":"BND","lat":4.535277,"lon":114.727669,"borders":["MY"],"tld":["bn"]},"BG":{"name":"Bulgaria","region":"Europe","currency":"BGN","lat":42.733883,"lon":25.48583,"borders":["GR","MK","RO","RS","TR"],"tld":["bg"]},"BF":{"name":"Burkina Faso","region":"Africa","currency":"XOF","lat":12.238333,"lon":-1.561593,"borders":["BJ","CI","GH","ML","NE","TG"],"tld":["bf"]},"BI":{"name":"Burundi","region":"Africa","currency":"BIF","lat":-3.373056,"lon":29.918886,"borders":["CD","RW","TZ"],"tld":["bi"]},"KH":{"name":"Cambodia","region":"Asia","currency":"KHR","lat":12.565679,"lon":104.990963,"borders":["LA","TH","VN"],"tld":["kh"]},"CM":{"name":"Cameroon","region":"Africa","currency":"XAF","lat":7.369722,"lon":12.354722,"borders":["CF","CG","GA","GQ","NG","TD"],"tld":["cm"]},"CV":{"name":"Cape Verde","region":"Africa","currency":"CVE","lat":16.002082,"lon":-24.013197,"borders":[],"tld":["cv"]},"KY":{"name":"Cayman Islands","region":"North America","currency":"KYD","lat":19.513469,"lon":-80.566956,"borders":[],"tld":["ky"]},"CF":{"name":"Central African Republic","region":"Africa","currency":"XAF","lat":6.611111,"lon":20.939444,"borders":["CD","CG","CM","SD","SS","TD"],"tld":["cf"]},"TD":{"name":"Chad","region":"Africa","currency":"XAF","lat":15.454166,"lon":18.732207,"borders":["CF","CM","LY","NE","NG","SD"],"tld":["td"]},"CL":{"name":"Chile","region":"South America","currency":"CLP","lat":-35.675147,"lon":-71.542969,"borders":["AR","BO","PE"],"tld":["cl"]},"CN":{"name":"China","region":"Asia","currency":"CNY","lat":35.86166,"lon":104.195397,"borders":["AF","BT","HK","IN","KG","KP","KZ","LA","MM","MN","MO","NP","PK","RU","TJ","VN"],"tld":["cn"]},"CX":{"name":"Christmas Island","region":"Australia","currency":"AUD","lat":-10.447525,"lon":105.690449,"borders":[],"tld":["cx"]},"CC":{"name":"Cocos (Keeling) Islands","region":"Australia","currency":"AUD","lat":-12.164165,"lon":96.870956,"borders":[],"tld":["cc"]},"CO":{"name":"Colombia","region":"South America","currency":"COU","lat":4.570868,"lon":-74.297333,"borders":["BR","EC","PA","PE","VE"],"tld":["co"]},"KM":{"name":"Comoros","region":"Africa","currency":"KMF","lat":-11.875001,"lon":43.872219,"borders":[],"tld":["km"]},"CG":{"name":"Congo","region":"Africa","currency":"XAF","lat":-0.228021,"lon":15.827659,"borders":["AO","CD","CF","CM","GA"],"tld":["cg"]},"CK":{"name":"Cook Islands","region":"Australia","currency":"NZD","lat":-21.236736,"lon":-159.777671,"borders":[],"tld":["ck"]},"CR":{"name":"Costa Rica","region":"South America","currency":"CRC","lat":9.748917,"lon":-83.753428,"borders":["NI","PA"],"tld":["cr"]},"CI":{"name":"C\u00f4te d'Ivoire","region":"Africa","currency":"XOF","lat":7.539989,"lon":-5.54708,"borders":["BF","GH","GN","LR","ML"],"tld":["ci"]},"HR":{"name":"Croatia","region":"Europe","currency":"HRK","lat":45.1,"lon":15.2,"borders":["BA","HU","ME","RS","SI"],"tld":["hr"]},"CU":{"name":"Cuba","region":"North America","currency":"CUP","lat":21.521757,"lon":-77.781167,"borders":[],"tld":["cu"]},"CW":{"name":"Cura\u00e7ao","region":"South America","currency":"ANG","lat":0,"lon":0,"borders":[],"tld":["cw"]},"CY":{"name":"Cyprus","region":"Europe","currency":"EUR","lat":35.126413,"lon":33.429859,"borders":[],"tld":["cy"]},"CZ":{"name":"Czech Republic","region":"Europe","currency":"CZK","lat":49.817492,"lon":15.472962,"borders":["AT","DE","PL","SK"],"tld":["cz"]},"CD":{"name":"Democratic Republic of the Congo","region":"Africa","currency":"CDF","lat":-4.038333,"lon":21.758664,"borders":["AO","BI","CF","CG","RW","SS","TZ","UG","ZM"],"tld":["cd"]},"DK":{"name":"Denmark","region":"Europe","currency":"DKK","lat":56.26392,"lon":9.501785,"borders":["DE"],"tld":["dk"]},"DJ":{"name":"Djibouti","region":"Africa","currency":"DJF","lat":11.825138,"lon":42.590275,"borders":["ER","ET","SO"],"tld":["dj"]},"DM":{"name":"Dominica","region":"North America","currency":"XCD","lat":15.414999,"lon":-61.370976,"borders":[],"tld":["dm"]},"DO":{"name":"Dominican Republic","region":"North America","currency":"DOP","lat":18.735693,"lon":-70.162651,"borders":["HT"],"tld":["do"]},"TL":{"name":"East Timor","region":"Asia","currency":"USD","lat":-8.874217,"lon":125.727539,"borders":["ID"],"tld":["tl"]},"EC":{"name":"Ecuador","region":"South America","currency":"USD","lat":-1.831239,"lon":-78.183406,"borders":["CO","PE"],"tld":["ec"]},"EG":{"name":"Egypt","region":"Africa","currency":"EGP","lat":26.820553,"lon":30.802498,"borders":["IL","LY","PS","SD"],"tld":["eg"]},"SV":{"name":"El Salvador","region":"North America","currency":"SVC","lat":13.794185,"lon":-88.89653,"borders":["GT","HN"],"tld":["sv"]},"GQ":{"name":"Equatorial Guinea","region":"Africa","currency":"XAF","lat":1.650801,"lon":10.267895,"borders":["CM","GA"],"tld":["gq"]},"ER":{"name":"Eritrea","region":"Africa","currency":"ERN","lat":15.179384,"lon":39.782334,"borders":["DJ","ET","SD"],"tld":["er"]},"EE":{"name":"Estonia","region":"Europe","currency":"EUR","lat":58.595272,"lon":25.013607,"borders":["LV","RU"],"tld":["ee"]},"ET":{"name":"Ethiopia","region":"Africa","currency":"ETB","lat":9.145,"lon":40.489673,"borders":["DJ","ER","KE","SD","SO","SS"],"tld":["et"]},"FK":{"name":"Falkland Islands","region":"South America","currency":"FKP","lat":-51.796253,"lon":-59.523613,"borders":[],"tld":["fk"]},"FO":{"name":"Faroe Islands","region":"Europe","currency":"DKK","lat":61.892635,"lon":-6.911806,"borders":[],"tld":["fo"]},"FM":{"name":"Federated States of Micronesia","region":"Australia","currency":"USD","lat":7.425554,"lon":150.550812,"borders":[],"tld":["fm"]},"FJ":{"name":"Fiji","region":"Australia","currency":"FJD","lat":-16.578193,"lon":179.414413,"borders":[],"tld":["fj"]},"FI":{"name":"Finland","region":"Europe","currency":"EUR","lat":61.92411,"lon":25.748151,"borders":["NO","RU","SE"],"tld":["fi"]},"FR":{"name":"France","region":"Europe","currency":"EUR","lat":46.227638,"lon":2.213749,"borders":["AD","BE","CH","DE","ES","IT","LU","MC"],"tld":["fr"]},"GF":{"name":"French Guiana","region":"South America","currency":"EUR","lat":3.933889,"lon":-53.125782,"borders":["BR","SR"],"tld":["gf"]},"PF":{"name":"French Polynesia","region":"Australia","currency":"XPF","lat":-17.679742,"lon":-149.406843,"borders":[],"tld":["pf"]},"GA":{"name":"Gabon","region":"Africa","currency":"XAF","lat":-0.803689,"lon":11.609444,"borders":["CG","CM","GQ"],"tld":["ga"]},"GM":{"name":"Gambia","region":"Africa","currency":"GMD","lat":13.443182,"lon":-15.310139,"borders":["SN"],"tld":["gm"]},"GE":{"name":"Georgia","region":"Asia","currency":"GEL","lat":42.315407,"lon":43.356892,"borders":["AM","AZ","RU","TR"],"tld":["ge"]},"DE":{"name":"Germany","region":"Europe","currency":"EUR","lat":51.165691,"lon":10.451526,"borders":["AT","BE","CH","CZ","DK","FR","LU","NL","PL"],"tld":["de"]},"GH":{"name":"Ghana","region":"Africa","currency":"GHS","lat":7.946527,"lon":-1.023194,"borders":["BF","CI","TG"],"tld":["gh"]},"GI":{"name":"Gibraltar","region":"Europe","currency":"GIP","lat":36.137741,"lon":-5.345374,"borders":["ES"],"tld":["gi"]},"GR":{"name":"Greece","region":"Europe","currency":"EUR","lat":39.074208,"lon":21.824312,"borders":["AL","BG","MK","TR"],"tld":["gr"]},"GL":{"name":"Greenland","region":"North America","currency":"DKK","lat":71.706936,"lon":-42.604303,"borders":[],"tld":["gl"]},"GD":{"name":"Grenada","region":"North America","currency":"XCD","lat":12.262776,"lon":-61.604171,"borders":[],"tld":["gd"]},"GP":{"name":"Guadeloupe","region":"North America","currency":"EUR","lat":16.995971,"lon":-62.067641,"borders":[],"tld":["gp"]},"GU":{"name":"Guam","region":"Australia","currency":"USD","lat":13.444304,"lon":144.793731,"borders":[],"tld":["gu"]},"GT":{"name":"Guatemala","region":"North America","currency":"GTQ","lat":15.783471,"lon":-90.230759,"borders":["BZ","HN","MX","SV"],"tld":["gt"]},"GG":{"name":"Guernsey","region":"Europe","currency":"GBP","lat":49.465691,"lon":-2.585278,"borders":[],"tld":["gg"]},"GN":{"name":"Guinea","region":"Africa","currency":"GNF","lat":9.945587,"lon":-9.696645,"borders":["CI","GW","LR","ML","SL","SN"],"tld":["gn"]},"GW":{"name":"Guinea-Bissau","region":"Africa","currency":"XOF","lat":11.803749,"lon":-15.180413,"borders":["GN","SN"],"tld":["gw"]},"GY":{"name":"Guyana","region":"South America","currency":"GYD","lat":4.860416,"lon":-58.93018,"borders":["BR","SR","VE"],"tld":["gy"]},"HT":{"name":"Haiti","region":"North America","currency":"USD","lat":18.971187,"lon":-72.285215,"borders":["DO"],"tld":["ht"]},"HN":{"name":"Honduras","region":"North America","currency":"HNL","lat":15.199999,"lon":-86.241905,"borders":["GT","NI","SV"],"tld":["hn"]},"HK":{"name":"Hong Kong","region":"Asia","currency":"HKD","lat":22.396428,"lon":114.109497,"borders":["CN"],"tld":["hk"]},"HU":{"name":"Hungary","region":"Europe","currency":"HUF","lat":47.162494,"lon":19.503304,"borders":["AT","HR","RO","RS","SI","SK","UA"],"tld":["hu"]},"IS":{"name":"Iceland","region":"Europe","currency":"ISK","lat":64.963051,"lon":-19.020835,"borders":[],"tld":["is"]},"IN":{"name":"India","region":"Asia","currency":"INR","lat":20.593684,"lon":78.96288,"borders":["BD","BT","CN","MM","NP","PK"],"tld":["in"]},"ID":{"name":"Indonesia","region":"Asia","currency":"IDR","lat":-0.789275,"lon":113.921327,"borders":["MY","PG","TL"],"tld":["id"]},"IR":{"name":"Iran","region":"Asia","currency":"IRR","lat":32.427908,"lon":53.688046,"borders":["AF","AM","AZ","IQ","PK","TM","TR"],"tld":["ir"]},"IQ":{"name":"Iraq","region":"Asia","currency":"IQD","lat":33.223191,"lon":43.679291,"borders":["IR","JO","KW","SA","SY","TR"],"tld":["iq"]},"IE":{"name":"Ireland","region":"Europe","currency":"EUR","lat":53.41291,"lon":-8.24389,"borders":["GB"],"tld":["ie"]},"IM":{"name":"Isle of Man","region":"Europe","currency":"GBP","lat":54.236107,"lon":-4.548056,"borders":[],"tld":["im"]},"IL":{"name":"Israel","region":"Asia","currency":"ILS","lat":31.046051,"lon":34.851612,"borders":["EG","JO","LB","PS","SY"],"tld":["il"]},"IT":{"name":"Italy","region":"Europe","currency":"EUR","lat":41.87194,"lon":12.56738,"borders":["AT","CH","FR","SI","SM","VA"],"tld":["it"]},"JM":{"name":"Jamaica","region":"North America","currency":"JMD","lat":18.109581,"lon":-77.297508,"borders":[],"tld":["jm"]},"JP":{"name":"Japan","region":"Asia","currency":"JPY","lat":36.204824,"lon":138.252924,"borders":[],"tld":["jp"]},"JE":{"name":"Jersey","region":"Europe","currency":"GBP","lat":49.214439,"lon":-2.13125,"borders":[],"tld":["je"]},"JO":{"name":"Jordan","region":"Asia","currency":"JOD","lat":30.585164,"lon":36.238414,"borders":["IL","IQ","PS","SA","SY"],"tld":["jo"]},"KZ":{"name":"Kazakhstan","region":"Asia","currency":"KZT","lat":48.019573,"lon":66.923684,"borders":["CN","KG","RU","TM","UZ"],"tld":["kz"]},"KE":{"name":"Kenya","region":"Africa","currency":"KES","lat":-0.023559,"lon":37.906193,"borders":["ET","SO","SS","TZ","UG"],"tld":["ke"]},"KI":{"name":"Kiribati","region":"Australia","currency":"AUD","lat":-3.370417,"lon":-168.734039,"borders":[],"tld":["ki"]},"KW":{"name":"Kuwait","region":"Asia","currency":"KWD","lat":29.31166,"lon":47.481766,"borders":["IQ","SA"],"tld":["kw"]},"KG":{"name":"Kyrgyzstan","region":"Asia","currency":"KGS","lat":41.20438,"lon":74.766098,"borders":["CN","KZ","TJ","UZ"],"tld":["kg"]},"LA":{"name":"Laos","region":"Asia","currency":"LAK","lat":19.85627,"lon":102.495496,"borders":["CN","KH","MM","TH","VN"],"tld":["la"]},"LV":{"name":"Latvia","region":"Europe","currency":"EUR","lat":56.879635,"lon":24.603189,"borders":["BY","EE","LT","RU"],"tld":["lv"]},"LB":{"name":"Lebanon","region":"Asia","currency":"LBP","lat":33.854721,"lon":35.862285,"borders":["IL","SY"],"tld":["lb"]},"LS":{"name":"Lesotho","region":"Africa","currency":"LSL","lat":-29.609988,"lon":28.233608,"borders":["ZA"],"tld":["ls"]},"LR":{"name":"Liberia","region":"Africa","currency":"LRD","lat":6.428055,"lon":-9.429499,"borders":["CI","GN","SL"],"tld":["lr"]},"LY":{"name":"Libya","region":"Africa","currency":"LYD","lat":26.3351,"lon":17.228331,"borders":["DZ","EG","NE","SD","TD","TN"],"tld":["ly"]},"LI":{"name":"Liechtenstein","region":"Europe","currency":"CHF","lat":47.166,"lon":9.555373,"borders":["AT","CH"],"tld":["li"]},"LT":{"name":"Lithuania","region":"Europe","currency":"LTL","lat":55.169438,"lon":23.881275,"borders":["BY","LV","PL","RU"],"tld":["lt"]},"LU":{"name":"Luxembourg","region":"Europe","currency":"EUR","lat":49.815273,"lon":6.129583,"borders":["BE","DE","FR"],"tld":["lu"]},"MO":{"name":"Macao","region":"Asia","currency":"MOP","lat":22.198745,"lon":113.543873,"borders":["CN"],"tld":["mo"]},"MK":{"name":"Macedonia","region":"Europe","currency":"MKD","lat":41.608635,"lon":21.745275,"borders":["AL","BG","GR","RS","XK"],"tld":["mk"]},"MG":{"name":"Madagascar","region":"Africa","currency":"MGA","lat":-18.766947,"lon":46.869107,"borders":[],"tld":["mg"]},"MW":{"name":"Malawi","region":"Africa","currency":"MWK","lat":-13.254308,"lon":34.301525,"borders":["MZ","TZ","ZM"],"tld":["mw"]},"MY":{"name":"Malaysia","region":"Asia","currency":"MYR","lat":4.210484,"lon":101.975766,"borders":["BN","ID","TH"],"tld":["my"]},"MV":{"name":"Maldives","region":"Asia","currency":"MVR","lat":3.202778,"lon":73.22068,"borders":[],"tld":["mv"]},"ML":{"name":"Mali","region":"Africa","currency":"XOF","lat":17.570692,"lon":-3.996166,"borders":["BF","CI","DZ","GN","MR","NE","SN"],"tld":["ml"]},"MT":{"name":"Malta","region":"Europe","currency":"EUR","lat":35.937496,"lon":14.375416,"borders":[],"tld":["mt"]},"MH":{"name":"Marshall Islands","region":"Australia","currency":"USD","lat":7.131474,"lon":171.184478,"borders":[],"tld":["mh"]},"MQ":{"name":"Martinique","region":"South America","currency":"EUR","lat":14.641528,"lon":-61.024174,"borders":[],"tld":["mq"]},"MR":{"name":"Mauritania","region":"Africa","currency":"MRO","lat":21.00789,"lon":-10.940835,"borders":["DZ","EH","ML","SN"],"tld":["mr"]},"MU":{"name":"Mauritius","region":"Africa","currency":"MUR","lat":-20.348404,"lon":57.552152,"borders":[],"tld":["mu"]},"YT":{"name":"Mayotte","region":"Africa","currency":"EUR","lat":-12.8275,"lon":45.166244,"borders":[],"tld":["yt"]},"MX":{"name":"Mexico","region":"North America","currency":"MXV","lat":23.634501,"lon":-102.552784,"borders":["BZ","GT","US"],"tld":["mx"]},"MD":{"name":"Moldova","region":"Europe","currency":"MDL","lat":47.411631,"lon":28.369885,"borders":["RO","UA"],"tld":["md"]},"MC":{"name":"Monaco","region":"Europe","currency":"EUR","lat":43.750298,"lon":7.412841,"borders":["FR"],"tld":["mc"]},"MN":{"name":"Mongolia","region":"Asia","currency":"MNT","lat":46.862496,"lon":103.846656,"borders":["CN","RU"],"tld":["mn"]},"ME":{"name":"Montenegro","region":"Europe","currency":"EUR","lat":42.708678,"lon":19.37439,"borders":["AL","BA","HR","RS","XK"],"tld":["me"]},"MS":{"name":"Montserrat","region":"North America","currency":"XCD","lat":16.742498,"lon":-62.187366,"borders":[],"tld":["ms"]},"MA":{"name":"Morocco","region":"Africa","currency":"MAD","lat":31.791702,"lon":-7.09262,"borders":["DZ","EH","ES"],"tld":["ma"]},"MZ":{"name":"Mozambique","region":"Africa","currency":"MZN","lat":-18.665695,"lon":35.529562,"borders":["MW","SZ","TZ","ZA","ZM","ZW"],"tld":["mz"]},"MM":{"name":"Myanmar (Burma)","region":"Asia","currency":"MMK","lat":21.913965,"lon":95.956223,"borders":["BD","CN","IN","LA","TH"],"tld":["mm"]},"NA":{"name":"Namibia","region":"Africa","currency":"NAD","lat":-22.95764,"lon":18.49041,"borders":["AO","BW","ZA","ZM"],"tld":["na"]},"NR":{"name":"Nauru","region":"Australia","currency":"AUD","lat":-0.522778,"lon":166.931503,"borders":[],"tld":["nr"]},"NP":{"name":"Nepal","region":"Asia","currency":"NPR","lat":28.394857,"lon":84.124008,"borders":["CN","IN"],"tld":["np"]},"NL":{"name":"Netherlands","region":"Europe","currency":"EUR","lat":52.132633,"lon":5.291266,"borders":["BE","DE"],"tld":["nl"]},"NC":{"name":"New Caledonia","region":"Australia","currency":"XPF","lat":-20.904305,"lon":165.618042,"borders":[],"tld":["nc"]},"NZ":{"name":"New Zealand","region":"Australia","currency":"NZD","lat":-40.900557,"lon":174.885971,"borders":[],"tld":["nz"]},"NI":{"name":"Nicaragua","region":"North America","currency":"NIO","lat":12.865416,"lon":-85.207229,"borders":["CR","HN"],"tld":["ni"]},"NE":{"name":"Niger","region":"Africa","currency":"XOF","lat":17.607789,"lon":8.081666,"borders":["BF","BJ","DZ","LY","ML","NG","TD"],"tld":["ne"]},"NG":{"name":"Nigeria","region":"Africa","currency":"NGN","lat":9.081999,"lon":8.675277,"borders":["BJ","CM","NE","TD"],"tld":["ng"]},"NU":{"name":"Niue","region":"Australia","currency":"NZD","lat":-19.054445,"lon":-169.867233,"borders":[],"tld":["nu"]},"NF":{"name":"Norfolk Island","region":"Australia","currency":"AUD","lat":-29.040835,"lon":167.954712,"borders":[],"tld":["nf"]},"KP":{"name":"North Korea","region":"Asia","currency":"KPW","lat":40.339852,"lon":127.510093,"borders":["CN","KR","RU"],"tld":["kp"]},"MP":{"name":"Northern Mariana Islands","region":"Australia","currency":"USD","lat":17.33083,"lon":145.38469,"borders":[],"tld":["mp"]},"NO":{"name":"Norway","region":"Europe","currency":"NOK","lat":60.472024,"lon":8.468946,"borders":["FI","RU","SE"],"tld":["no"]},"OM":{"name":"Oman","region":"Asia","currency":"OMR","lat":21.512583,"lon":55.923255,"borders":["AE","SA","YE"],"tld":["om"]},"PK":{"name":"Pakistan","region":"Asia","currency":"PKR","lat":30.375321,"lon":69.345116,"borders":["AF","CN","IN","IR"],"tld":["pk"]},"PW":{"name":"Palau","region":"Australia","currency":"USD","lat":7.51498,"lon":134.58252,"borders":[],"tld":["pw"]},"PS":{"name":"Palestine","region":"Asia","currency":"EGP","lat":31.952162,"lon":35.233154,"borders":["EG","IL","JO"],"tld":["ps"]},"PA":{"name":"Panama","region":"North America","currency":"PAB","lat":8.537981,"lon":-80.782127,"borders":["CO","CR"],"tld":["pa"]},"PG":{"name":"Papua New Guinea","region":"Australia","currency":"PGK","lat":-6.314993,"lon":143.95555,"borders":["ID"],"tld":["pg"]},"PY":{"name":"Paraguay","region":"South America","currency":"PYG","lat":-23.442503,"lon":-58.443832,"borders":["AR","BO","BR"],"tld":["py"]},"PE":{"name":"Peru","region":"South America","currency":"PEN","lat":-9.189967,"lon":-75.015152,"borders":["BO","BR","CL","CO","EC"],"tld":["pe"]},"PH":{"name":"Philippines","region":"Asia","currency":"PHP","lat":12.879721,"lon":121.774017,"borders":[],"tld":["ph"]},"PL":{"name":"Poland","region":"Europe","currency":"PLN","lat":51.919438,"lon":19.145136,"borders":["BY","CZ","DE","LT","RU","SK","UA"],"tld":["pl"]},"PT":{"name":"Portugal","region":"Europe","currency":"EUR","lat":39.399872,"lon":-8.224454,"borders":["ES"],"tld":["pt"]},"PR":{"name":"Puerto Rico","region":"North America","currency":"USD","lat":18.220833,"lon":-66.590149,"borders":[],"tld":["pr"]},"QA":{"name":"Qatar","region":"Asia","currency":"QAR","lat":25.354826,"lon":51.183884,"borders":["SA"],"tld":["qa"]},"RE":{"name":"R\u00e9union","region":"Africa","currency":"EUR","lat":-21.115141,"lon":55.536384,"borders":[],"tld":["re"]},"RO":{"name":"Romania","region":"Europe","currency":"RON","lat":45.943161,"lon":24.96676,"borders":["BG","HU","MD","RS","UA"],"tld":["ro"]},"RU":{"name":"Russia","region":"Europe","currency":"RUB","lat":61.52401,"lon":105.318756,"borders":["AZ","BY","CN","EE","FI","GE","KP","KZ","LT","LV","MN","NO","PL","UA"],"tld":["ru","su"]},"RW":{"name":"Rwanda","region":"Africa","currency":"RWF","lat":-1.940278,"lon":29.873888,"borders":["BI","CD","TZ","UG"],"tld":["rw"]},"BL":{"name":"Saint Barth\u00e9lemy","region":"North America","currency":"EUR","lat":0,"lon":0,"borders":[],"tld":["bl"]},"SH":{"name":"Saint Helena, Ascension, and Tristan da Cunha","region":"Africa","currency":"SHP","lat":-24.143474,"lon":-10.030696,"borders":[],"tld":["ac","sh"]},"KN":{"name":"Saint Kitts and Nevis","region":"North America","currency":"XCD","lat":17.357822,"lon":-62.782998,"borders":[],"tld":["kn"]},"LC":{"name":"Saint Lucia","region":"North America","currency":"XCD","lat":13.909444,"lon":-60.978893,"borders":[],"tld":["lc"]},"MF":{"name":"Saint Martin","region":"North America","currency":"EUR","lat":0,"lon":0,"borders":["SX"],"tld":["fr","gp"]},"PM":{"name":"Saint Pierre and Miquelon","region":"North America","currency":"EUR","lat":46.941936,"lon":-56.27111,"borders":[],"tld":["pm"]},"VC":{"name":"Saint Vincent and the Grenadines","region":"North America","currency":"XCD","lat":12.984305,"lon":-61.287228,"borders":[],"tld":["vc"]},"WS":{"name":"Samoa","region":"Australia","currency":"WST","lat":-13.759029,"lon":-172.104629,"borders":[],"tld":["ws"]},"SM":{"name":"San Marino","region":"Europe","currency":"EUR","lat":43.94236,"lon":12.457777,"borders":["IT"],"tld":["sm"]},"ST":{"name":"Sao Tom\u00e9 and Pr\u00edncipe","region":"Africa","currency":"STD","lat":0.18636,"lon":6.613081,"borders":[],"tld":["st"]},"SA":{"name":"Saudi Arabia","region":"Asia","currency":"SAR","lat":23.885942,"lon":45.079162,"borders":["AE","IQ","JO","KW","OM","QA","YE"],"tld":["sa"]},"SN":{"name":"Senegal","region":"Africa","currency":"XOF","lat":14.497401,"lon":-14.452362,"borders":["GM","GN","GW","ML","MR"],"tld":["sn"]},"RS":{"name":"Serbia","region":"Europe","currency":"RSD","lat":44.016521,"lon":21.005859,"borders":["BA","BG","HR","HU","ME","MK","RO","XK"],"tld":["rs"]},"SC":{"name":"Seychelles","region":"Africa","currency":"SCR","lat":-4.679574,"lon":55.491977,"borders":[],"tld":["sc"]},"SL":{"name":"Sierra Leone","region":"Africa","currency":"SLL","lat":8.460555,"lon":-11.779889,"borders":["GN","LR"],"tld":["sl"]},"SG":{"name":"Singapore","region":"Asia","currency":"SGD","lat":1.352083,"lon":103.819836,"borders":[],"tld":["sg"]},"SX":{"name":"Sint Maarten","region":"North America","currency":"ANG","lat":0,"lon":0,"borders":["MF"],"tld":["sx"]},"SK":{"name":"Slovakia","region":"Europe","currency":"EUR","lat":48.669026,"lon":19.699024,"borders":["AT","CZ","HU","PL","UA"],"tld":["sk"]},"SI":{"name":"Slovenia","region":"Europe","currency":"EUR","lat":46.151241,"lon":14.995463,"borders":["AT","HR","HU","IT"],"tld":["si"]},"SB":{"name":"Solomon Islands","region":"Australia","currency":"SBD","lat":-9.64571,"lon":160.156194,"borders":[],"tld":["sb"]},"SO":{"name":"Somalia","region":"Africa","currency":"SOS","lat":5.152149,"lon":46.199616,"borders":["DJ","ET","KE"],"tld":["so"]},"ZA":{"name":"South Africa","region":"Africa","currency":"ZAR","lat":-30.559482,"lon":22.937506,"borders":["BW","LS","MZ","NA","SZ","ZW"],"tld":["za"]},"KR":{"name":"South Korea","region":"Asia","currency":"KRW","lat":35.907757,"lon":127.766922,"borders":["KP"],"tld":["kr"]},"SS":{"name":"South Sudan","region":"Africa","currency":"SSP","lat":0,"lon":0,"borders":["CD","CF","ET","KE","SD","UG"],"tld":["ss"]},"ES":{"name":"Spain","region":"Europe","currency":"EUR","lat":40.463667,"lon":-3.74922,"borders":["AD","FR","GI","MA","PT"],"tld":["es"]},"LK":{"name":"Sri Lanka","region":"Asia","currency":"LKR","lat":7.873054,"lon":80.771797,"borders":["IN"],"tld":["lk"]},"SD":{"name":"Sudan","region":"Africa","currency":"SDG","lat":12.862807,"lon":30.217636,"borders":["CF","EG","ER","ET","LY","SS","TD"],"tld":["sd"]},"SR":{"name":"Suriname","region":"South America","currency":"SRD","lat":3.919305,"lon":-56.027783,"borders":["BR","GF","GY"],"tld":["sr"]},"SJ":{"name":"Svalbard and Jan Mayen","region":"Europe","currency":"NOK","lat":77.553604,"lon":23.670272,"borders":[],"tld":["sj"]},"SZ":{"name":"Swaziland","region":"Africa","currency":"SZL","lat":-26.522503,"lon":31.465866,"borders":["MZ","ZA"],"tld":["sz"]},"SE":{"name":"Sweden","region":"Europe","currency":"SEK","lat":60.128161,"lon":18.643501,"borders":["FI","NO"],"tld":["se"]},"CH":{"name":"Switzerland","region":"Europe","currency":"CHW","lat":46.818188,"lon":8.227512,"borders":["AT","DE","FR","IT","LI"],"tld":["ch"]},"SY":{"name":"Syrian Arab Republic","region":"Asia","currency":"SYP","lat":34.802075,"lon":38.996815,"borders":["IL","IQ","JO","LB","TR"],"tld":["sy"]},"TW":{"name":"Taiwan","region":"Asia","currency":"TWD","lat":23.69781,"lon":120.960515,"borders":[],"tld":["tw"]},"TJ":{"name":"Tajikistan","region":"Asia","currency":"TJS","lat":38.861034,"lon":71.276093,"borders":["AF","CN","KG","UZ"],"tld":["tj"]},"TZ":{"name":"Tanzania","region":"Africa","currency":"TZS","lat":-6.369028,"lon":34.888822,"borders":["BI","CD","KE","MW","MZ","RW","UG","ZM"],"tld":["tz"]},"TH":{"name":"Thailand","region":"Asia","currency":"THB","lat":15.870032,"lon":100.992541,"borders":["KH","LA","MM","MY"],"tld":["th"]},"TK":{"name":"Tokelau","region":"Australia","currency":"NZD","lat":-8.967363,"lon":-171.855881,"borders":[],"tld":["tk"]},"TO":{"name":"Tonga","region":"Australia","currency":"TOP","lat":-21.178986,"lon":-175.198242,"borders":[],"tld":["to"]},"TG":{"name":"Togo","region":"Africa","currency":"XOF","lat":8.619543,"lon":0.824782,"borders":["BF","BJ","GH"],"tld":["tg"]},"TT":{"name":"Trinidad and Tobago","region":"North America","currency":"TTD","lat":10.691803,"lon":-61.222503,"borders":[],"tld":["tt"]},"TN":{"name":"Tunisia","region":"Africa","currency":"TND","lat":33.886917,"lon":9.537499,"borders":["DZ","LY"],"tld":["tn"]},"TR":{"name":"Turkey","region":"Europe","currency":"TRY","lat":38.963745,"lon":35.243322,"borders":["AM","AZ","BG","GE","GR","IQ","IR","SY"],"tld":["tr"]},"TM":{"name":"Turkmenistan","region":"Asia","currency":"TMT","lat":38.969719,"lon":59.556278,"borders":["AF","IR","KZ","UZ"],"tld":["tm"]},"TC":{"name":"Turks and Caicos Islands","region":"North America","currency":"USD","lat":21.694025,"lon":-71.797928,"borders":[],"tld":["tc"]},"TV":{"name":"Tuvalu","region":"Australia","currency":"AUD","lat":-7.109535,"lon":177.64933,"borders":[],"tld":["tv"]},"UG":{"name":"Uganda","region":"Africa","currency":"UGX","lat":1.373333,"lon":32.290275,"borders":["CD","KE","RW","SS","TZ"],"tld":["ug"]},"UA":{"name":"Ukraine","region":"Europe","currency":"UAH","lat":48.379433,"lon":31.16558,"borders":["BY","HU","MD","PL","RO","RU","SK"],"tld":["ua"]},"AE":{"name":"United Arab Emirates","region":"Asia","currency":"AED","lat":23.424076,"lon":53.847818,"borders":["OM","SA"],"tld":["ae"]},"UY":{"name":"Uruguay","region":"South America","currency":"UYU","lat":-32.522779,"lon":-55.765835,"borders":["AR","BR"],"tld":["uy"]},"VI":{"name":"U.S. Virgin Islands","region":"North America","currency":"USD","lat":18.335765,"lon":-64.896335,"borders":[],"tld":["vi"]},"UZ":{"name":"Uzbekistan","region":"Asia","currency":"UZS","lat":41.377491,"lon":64.585262,"borders":["AF","KG","KZ","TJ","TM"],"tld":["uz"]},"VA":{"name":"Vatican City","region":"Europe","currency":"EUR","lat":41.902916,"lon":12.453389,"borders":["IT"],"tld":["va"]},"VE":{"name":"Venezuela","region":"South America","currency":"VEF","lat":6.42375,"lon":-66.58973,"borders":["BR","CO","GY"],"tld":["ve"]},"VN":{"name":"Vietnam","region":"Asia","currency":"VND","lat":14.058324,"lon":108.277199,"borders":["CN","KH","LA"],"tld":["vn"]},"WF":{"name":"Wallis and Futuna","region":"Australia","currency":"XPF","lat":-13.768752,"lon":-177.156097,"borders":[],"tld":["wf"]},"EH":{"name":"Western Sahara","region":"Africa","currency":"MAD","lat":24.215527,"lon":-12.885834,"borders":["DZ","MA","MR"],"tld":["eh"]},"YE":{"name":"Yemen","region":"Asia","currency":"YER","lat":15.552727,"lon":48.516388,"borders":["OM","SA"],"tld":["ye"]},"ZM":{"name":"Zambia","region":"Africa","currency":"ZMW","lat":-13.133897,"lon":27.849332,"borders":["AO","BW","CD","MW","MZ","NA","TZ","ZW"],"tld":["zm"]},"ZW":{"name":"Zimbabwe","region":"Africa","currency":"USD","lat":-19.015438,"lon":29.154857,"borders":["BW","MZ","ZA","ZM"],"tld":["zw"]}},"timezones":{"AFRICA\/ABIDJAN":"Africa\/Abidjan","AFRICA\/ACCRA":"Africa\/Accra","AFRICA\/ADDIS_ABABA":"Africa\/Addis_Ababa","AFRICA\/ALGIERS":"Africa\/Algiers","AFRICA\/ASMARA":"Africa\/Asmara","AFRICA\/BAMAKO":"Africa\/Bamako","AFRICA\/BANGUI":"Africa\/Bangui","AFRICA\/BANJUL":"Africa\/Banjul","AFRICA\/BISSAU":"Africa\/Bissau","AFRICA\/BLANTYRE":"Africa\/Blantyre","AFRICA\/BRAZZAVILLE":"Africa\/Brazzaville","AFRICA\/BUJUMBURA":"Africa\/Bujumbura","AFRICA\/CAIRO":"Africa\/Cairo","AFRICA\/CASABLANCA":"Africa\/Casablanca","AFRICA\/CEUTA":"Africa\/Ceuta","AFRICA\/CONAKRY":"Africa\/Conakry","AFRICA\/DAKAR":"Africa\/Dakar","AFRICA\/DAR_ES_SALAAM":"Africa\/Dar_es_Salaam","AFRICA\/DJIBOUTI":"Africa\/Djibouti","AFRICA\/DOUALA":"Africa\/Douala","AFRICA\/EL_AAIUN":"Africa\/El_Aaiun","AFRICA\/FREETOWN":"Africa\/Freetown","AFRICA\/GABORONE":"Africa\/Gaborone","AFRICA\/HARARE":"Africa\/Harare","AFRICA\/JOHANNESBURG":"Africa\/Johannesburg","AFRICA\/JUBA":"Africa\/Juba","AFRICA\/KAMPALA":"Africa\/Kampala","AFRICA\/KHARTOUM":"Africa\/Khartoum","AFRICA\/KIGALI":"Africa\/Kigali","AFRICA\/KINSHASA":"Africa\/Kinshasa","AFRICA\/LAGOS":"Africa\/Lagos","AFRICA\/LIBREVILLE":"Africa\/Libreville","AFRICA\/LOME":"Africa\/Lome","AFRICA\/LUANDA":"Africa\/Luanda","AFRICA\/LUBUMBASHI":"Africa\/Lubumbashi","AFRICA\/LUSAKA":"Africa\/Lusaka","AFRICA\/MALABO":"Africa\/Malabo","AFRICA\/MAPUTO":"Africa\/Maputo","AFRICA\/MASERU":"Africa\/Maseru","AFRICA\/MBABANE":"Africa\/Mbabane","AFRICA\/MOGADISHU":"Africa\/Mogadishu","AFRICA\/MONROVIA":"Africa\/Monrovia","AFRICA\/NAIROBI":"Africa\/Nairobi","AFRICA\/NDJAMENA":"Africa\/Ndjamena","AFRICA\/NIAMEY":"Africa\/Niamey","AFRICA\/NOUAKCHOTT":"Africa\/Nouakchott","AFRICA\/OUAGADOUGOU":"Africa\/Ouagadougou","AFRICA\/PORTO-NOVO":"Africa\/Porto-Novo","AFRICA\/SAO_TOME":"Africa\/Sao_Tome","AFRICA\/TRIPOLI":"Africa\/Tripoli","AFRICA\/TUNIS":"Africa\/Tunis","AFRICA\/WINDHOEK":"Africa\/Windhoek","AMERICA\/ADAK":"America\/Adak","AMERICA\/ANCHORAGE":"America\/Anchorage","AMERICA\/ANGUILLA":"America\/Anguilla","AMERICA\/ANTIGUA":"America\/Antigua","AMERICA\/ARAGUAINA":"America\/Araguaina","AMERICA\/ARGENTINA\/BUENOS_AIRES":"America\/Argentina\/Buenos_Aires","AMERICA\/ARGENTINA\/CATAMARCA":"America\/Argentina\/Catamarca","AMERICA\/ARGENTINA\/CORDOBA":"America\/Argentina\/Cordoba","AMERICA\/ARGENTINA\/JUJUY":"America\/Argentina\/Jujuy","AMERICA\/ARGENTINA\/LA_RIOJA":"America\/Argentina\/La_Rioja","AMERICA\/ARGENTINA\/MENDOZA":"America\/Argentina\/Mendoza","AMERICA\/ARGENTINA\/RIO_GALLEGOS":"America\/Argentina\/Rio_Gallegos","AMERICA\/ARGENTINA\/SALTA":"America\/Argentina\/Salta","AMERICA\/ARGENTINA\/SAN_JUAN":"America\/Argentina\/San_Juan","AMERICA\/ARGENTINA\/SAN_LUIS":"America\/Argentina\/San_Luis","AMERICA\/ARGENTINA\/TUCUMAN":"America\/Argentina\/Tucuman","AMERICA\/ARGENTINA\/USHUAIA":"America\/Argentina\/Ushuaia","AMERICA\/ARUBA":"America\/Aruba","AMERICA\/ASUNCION":"America\/Asuncion","AMERICA\/ATIKOKAN":"America\/Atikokan","AMERICA\/BAHIA":"America\/Bahia","AMERICA\/BAHIA_BANDERAS":"America\/Bahia_Banderas","AMERICA\/BARBADOS":"America\/Barbados","AMERICA\/BELEM":"America\/Belem","AMERICA\/BELIZE":"America\/Belize","AMERICA\/BLANC-SABLON":"America\/Blanc-Sablon","AMERICA\/BOA_VISTA":"America\/Boa_Vista","AMERICA\/BOGOTA":"America\/Bogota","AMERICA\/BOISE":"America\/Boise","AMERICA\/CAMBRIDGE_BAY":"America\/Cambridge_Bay","AMERICA\/CAMPO_GRANDE":"America\/Campo_Grande","AMERICA\/CANCUN":"America\/Cancun","AMERICA\/CARACAS":"America\/Caracas","AMERICA\/CAYENNE":"America\/Cayenne","AMERICA\/CAYMAN":"America\/Cayman","AMERICA\/CHICAGO":"America\/Chicago","AMERICA\/CHIHUAHUA":"America\/Chihuahua","AMERICA\/COSTA_RICA":"America\/Costa_Rica","AMERICA\/CRESTON":"America\/Creston","AMERICA\/CUIABA":"America\/Cuiaba","AMERICA\/CURACAO":"America\/Curacao","AMERICA\/DANMARKSHAVN":"America\/Danmarkshavn","AMERICA\/DAWSON":"America\/Dawson","AMERICA\/DAWSON_CREEK":"America\/Dawson_Creek","AMERICA\/DENVER":"America\/Denver","AMERICA\/DETROIT":"America\/Detroit","AMERICA\/DOMINICA":"America\/Dominica","AMERICA\/EDMONTON":"America\/Edmonton","AMERICA\/EIRUNEPE":"America\/Eirunepe","AMERICA\/EL_SALVADOR":"America\/El_Salvador","AMERICA\/FORT_NELSON":"America\/Fort_Nelson","AMERICA\/FORTALEZA":"America\/Fortaleza","AMERICA\/GLACE_BAY":"America\/Glace_Bay","AMERICA\/GODTHAB":"America\/Godthab","AMERICA\/GOOSE_BAY":"America\/Goose_Bay","AMERICA\/GRAND_TURK":"America\/Grand_Turk","AMERICA\/GRENADA":"America\/Grenada","AMERICA\/GUADELOUPE":"America\/Guadeloupe","AMERICA\/GUATEMALA":"America\/Guatemala","AMERICA\/GUAYAQUIL":"America\/Guayaquil","AMERICA\/GUYANA":"America\/Guyana","AMERICA\/HALIFAX":"America\/Halifax","AMERICA\/HAVANA":"America\/Havana","AMERICA\/HERMOSILLO":"America\/Hermosillo","AMERICA\/INDIANA\/INDIANAPOLIS":"America\/Indiana\/Indianapolis","AMERICA\/INDIANA\/KNOX":"America\/Indiana\/Knox","AMERICA\/INDIANA\/MARENGO":"America\/Indiana\/Marengo","AMERICA\/INDIANA\/PETERSBURG":"America\/Indiana\/Petersburg","AMERICA\/INDIANA\/TELL_CITY":"America\/Indiana\/Tell_City","AMERICA\/INDIANA\/VEVAY":"America\/Indiana\/Vevay","AMERICA\/INDIANA\/VINCENNES":"America\/Indiana\/Vincennes","AMERICA\/INDIANA\/WINAMAC":"America\/Indiana\/Winamac","AMERICA\/INUVIK":"America\/Inuvik","AMERICA\/IQALUIT":"America\/Iqaluit","AMERICA\/JAMAICA":"America\/Jamaica","AMERICA\/JUNEAU":"America\/Juneau","AMERICA\/KENTUCKY\/LOUISVILLE":"America\/Kentucky\/Louisville","AMERICA\/KENTUCKY\/MONTICELLO":"America\/Kentucky\/Monticello","AMERICA\/KRALENDIJK":"America\/Kralendijk","AMERICA\/LA_PAZ":"America\/La_Paz","AMERICA\/LIMA":"America\/Lima","AMERICA\/LOS_ANGELES":"America\/Los_Angeles","AMERICA\/LOWER_PRINCES":"America\/Lower_Princes","AMERICA\/MACEIO":"America\/Maceio","AMERICA\/MANAGUA":"America\/Managua","AMERICA\/MANAUS":"America\/Manaus","AMERICA\/MARIGOT":"America\/Marigot","AMERICA\/MARTINIQUE":"America\/Martinique","AMERICA\/MATAMOROS":"America\/Matamoros","AMERICA\/MAZATLAN":"America\/Mazatlan","AMERICA\/MENOMINEE":"America\/Menominee","AMERICA\/MERIDA":"America\/Merida","AMERICA\/METLAKATLA":"America\/Metlakatla","AMERICA\/MEXICO_CITY":"America\/Mexico_City","AMERICA\/MIQUELON":"America\/Miquelon","AMERICA\/MONCTON":"America\/Moncton","AMERICA\/MONTERREY":"America\/Monterrey","AMERICA\/MONTEVIDEO":"America\/Montevideo","AMERICA\/MONTSERRAT":"America\/Montserrat","AMERICA\/NASSAU":"America\/Nassau","AMERICA\/NEW_YORK":"America\/New_York","AMERICA\/NIPIGON":"America\/Nipigon","AMERICA\/NOME":"America\/Nome","AMERICA\/NORONHA":"America\/Noronha","AMERICA\/NORTH_DAKOTA\/BEULAH":"America\/North_Dakota\/Beulah","AMERICA\/NORTH_DAKOTA\/CENTER":"America\/North_Dakota\/Center","AMERICA\/NORTH_DAKOTA\/NEW_SALEM":"America\/North_Dakota\/New_Salem","AMERICA\/OJINAGA":"America\/Ojinaga","AMERICA\/PANAMA":"America\/Panama","AMERICA\/PANGNIRTUNG":"America\/Pangnirtung","AMERICA\/PARAMARIBO":"America\/Paramaribo","AMERICA\/PHOENIX":"America\/Phoenix","AMERICA\/PORT-AU-PRINCE":"America\/Port-au-Prince","AMERICA\/PORT_OF_SPAIN":"America\/Port_of_Spain","AMERICA\/PORTO_VELHO":"America\/Porto_Velho","AMERICA\/PUERTO_RICO":"America\/Puerto_Rico","AMERICA\/PUNTA_ARENAS":"America\/Punta_Arenas","AMERICA\/RAINY_RIVER":"America\/Rainy_River","AMERICA\/RANKIN_INLET":"America\/Rankin_Inlet","AMERICA\/RECIFE":"America\/Recife","AMERICA\/REGINA":"America\/Regina","AMERICA\/RESOLUTE":"America\/Resolute","AMERICA\/RIO_BRANCO":"America\/Rio_Branco","AMERICA\/SANTAREM":"America\/Santarem","AMERICA\/SANTIAGO":"America\/Santiago","AMERICA\/SANTO_DOMINGO":"America\/Santo_Domingo","AMERICA\/SAO_PAULO":"America\/Sao_Paulo","AMERICA\/SCORESBYSUND":"America\/Scoresbysund","AMERICA\/SITKA":"America\/Sitka","AMERICA\/ST_BARTHELEMY":"America\/St_Barthelemy","AMERICA\/ST_JOHNS":"America\/St_Johns","AMERICA\/ST_KITTS":"America\/St_Kitts","AMERICA\/ST_LUCIA":"America\/St_Lucia","AMERICA\/ST_THOMAS":"America\/St_Thomas","AMERICA\/ST_VINCENT":"America\/St_Vincent","AMERICA\/SWIFT_CURRENT":"America\/Swift_Current","AMERICA\/TEGUCIGALPA":"America\/Tegucigalpa","AMERICA\/THULE":"America\/Thule","AMERICA\/THUNDER_BAY":"America\/Thunder_Bay","AMERICA\/TIJUANA":"America\/Tijuana","AMERICA\/TORONTO":"America\/Toronto","AMERICA\/TORTOLA":"America\/Tortola","AMERICA\/VANCOUVER":"America\/Vancouver","AMERICA\/WHITEHORSE":"America\/Whitehorse","AMERICA\/WINNIPEG":"America\/Winnipeg","AMERICA\/YAKUTAT":"America\/Yakutat","AMERICA\/YELLOWKNIFE":"America\/Yellowknife","ANTARCTICA\/CASEY":"Antarctica\/Casey","ANTARCTICA\/DAVIS":"Antarctica\/Davis","ANTARCTICA\/DUMONTDURVILLE":"Antarctica\/DumontDUrville","ANTARCTICA\/MACQUARIE":"Antarctica\/Macquarie","ANTARCTICA\/MAWSON":"Antarctica\/Mawson","ANTARCTICA\/MCMURDO":"Antarctica\/McMurdo","ANTARCTICA\/PALMER":"Antarctica\/Palmer","ANTARCTICA\/ROTHERA":"Antarctica\/Rothera","ANTARCTICA\/SYOWA":"Antarctica\/Syowa","ANTARCTICA\/TROLL":"Antarctica\/Troll","ANTARCTICA\/VOSTOK":"Antarctica\/Vostok","ARCTIC\/LONGYEARBYEN":"Arctic\/Longyearbyen","ASIA\/ADEN":"Asia\/Aden","ASIA\/ALMATY":"Asia\/Almaty","ASIA\/AMMAN":"Asia\/Amman","ASIA\/ANADYR":"Asia\/Anadyr","ASIA\/AQTAU":"Asia\/Aqtau","ASIA\/AQTOBE":"Asia\/Aqtobe","ASIA\/ASHGABAT":"Asia\/Ashgabat","ASIA\/ATYRAU":"Asia\/Atyrau","ASIA\/BAGHDAD":"Asia\/Baghdad","ASIA\/BAHRAIN":"Asia\/Bahrain","ASIA\/BAKU":"Asia\/Baku","ASIA\/BANGKOK":"Asia\/Bangkok","ASIA\/BARNAUL":"Asia\/Barnaul","ASIA\/BEIRUT":"Asia\/Beirut","ASIA\/BISHKEK":"Asia\/Bishkek","ASIA\/BRUNEI":"Asia\/Brunei","ASIA\/CHITA":"Asia\/Chita","ASIA\/CHOIBALSAN":"Asia\/Choibalsan","ASIA\/COLOMBO":"Asia\/Colombo","ASIA\/DAMASCUS":"Asia\/Damascus","ASIA\/DHAKA":"Asia\/Dhaka","ASIA\/DILI":"Asia\/Dili","ASIA\/DUBAI":"Asia\/Dubai","ASIA\/DUSHANBE":"Asia\/Dushanbe","ASIA\/FAMAGUSTA":"Asia\/Famagusta","ASIA\/GAZA":"Asia\/Gaza","ASIA\/HEBRON":"Asia\/Hebron","ASIA\/HO_CHI_MINH":"Asia\/Ho_Chi_Minh","ASIA\/HONG_KONG":"Asia\/Hong_Kong","ASIA\/HOVD":"Asia\/Hovd","ASIA\/IRKUTSK":"Asia\/Irkutsk","ASIA\/JAKARTA":"Asia\/Jakarta","ASIA\/JAYAPURA":"Asia\/Jayapura","ASIA\/JERUSALEM":"Asia\/Jerusalem","ASIA\/KABUL":"Asia\/Kabul","ASIA\/KAMCHATKA":"Asia\/Kamchatka","ASIA\/KARACHI":"Asia\/Karachi","ASIA\/KATHMANDU":"Asia\/Kathmandu","ASIA\/KHANDYGA":"Asia\/Khandyga","ASIA\/KOLKATA":"Asia\/Kolkata","ASIA\/KRASNOYARSK":"Asia\/Krasnoyarsk","ASIA\/KUALA_LUMPUR":"Asia\/Kuala_Lumpur","ASIA\/KUCHING":"Asia\/Kuching","ASIA\/KUWAIT":"Asia\/Kuwait","ASIA\/MACAU":"Asia\/Macau","ASIA\/MAGADAN":"Asia\/Magadan","ASIA\/MAKASSAR":"Asia\/Makassar","ASIA\/MANILA":"Asia\/Manila","ASIA\/MUSCAT":"Asia\/Muscat","ASIA\/NICOSIA":"Asia\/Nicosia","ASIA\/NOVOKUZNETSK":"Asia\/Novokuznetsk","ASIA\/NOVOSIBIRSK":"Asia\/Novosibirsk","ASIA\/OMSK":"Asia\/Omsk","ASIA\/ORAL":"Asia\/Oral","ASIA\/PHNOM_PENH":"Asia\/Phnom_Penh","ASIA\/PONTIANAK":"Asia\/Pontianak","ASIA\/PYONGYANG":"Asia\/Pyongyang","ASIA\/QATAR":"Asia\/Qatar","ASIA\/QYZYLORDA":"Asia\/Qyzylorda","ASIA\/RIYADH":"Asia\/Riyadh","ASIA\/SAKHALIN":"Asia\/Sakhalin","ASIA\/SAMARKAND":"Asia\/Samarkand","ASIA\/SEOUL":"Asia\/Seoul","ASIA\/SHANGHAI":"Asia\/Shanghai","ASIA\/SINGAPORE":"Asia\/Singapore","ASIA\/SREDNEKOLYMSK":"Asia\/Srednekolymsk","ASIA\/TAIPEI":"Asia\/Taipei","ASIA\/TASHKENT":"Asia\/Tashkent","ASIA\/TBILISI":"Asia\/Tbilisi","ASIA\/TEHRAN":"Asia\/Tehran","ASIA\/THIMPHU":"Asia\/Thimphu","ASIA\/TOKYO":"Asia\/Tokyo","ASIA\/TOMSK":"Asia\/Tomsk","ASIA\/ULAANBAATAR":"Asia\/Ulaanbaatar","ASIA\/URUMQI":"Asia\/Urumqi","ASIA\/UST-NERA":"Asia\/Ust-Nera","ASIA\/VIENTIANE":"Asia\/Vientiane","ASIA\/VLADIVOSTOK":"Asia\/Vladivostok","ASIA\/YAKUTSK":"Asia\/Yakutsk","ASIA\/YANGON":"Asia\/Yangon","ASIA\/YEKATERINBURG":"Asia\/Yekaterinburg","ASIA\/YEREVAN":"Asia\/Yerevan","ATLANTIC\/AZORES":"Atlantic\/Azores","ATLANTIC\/BERMUDA":"Atlantic\/Bermuda","ATLANTIC\/CANARY":"Atlantic\/Canary","ATLANTIC\/CAPE_VERDE":"Atlantic\/Cape_Verde","ATLANTIC\/FAROE":"Atlantic\/Faroe","ATLANTIC\/MADEIRA":"Atlantic\/Madeira","ATLANTIC\/REYKJAVIK":"Atlantic\/Reykjavik","ATLANTIC\/SOUTH_GEORGIA":"Atlantic\/South_Georgia","ATLANTIC\/ST_HELENA":"Atlantic\/St_Helena","ATLANTIC\/STANLEY":"Atlantic\/Stanley","AUSTRALIA\/ADELAIDE":"Australia\/Adelaide","AUSTRALIA\/BRISBANE":"Australia\/Brisbane","AUSTRALIA\/BROKEN_HILL":"Australia\/Broken_Hill","AUSTRALIA\/CURRIE":"Australia\/Currie","AUSTRALIA\/DARWIN":"Australia\/Darwin","AUSTRALIA\/EUCLA":"Australia\/Eucla","AUSTRALIA\/HOBART":"Australia\/Hobart","AUSTRALIA\/LINDEMAN":"Australia\/Lindeman","AUSTRALIA\/LORD_HOWE":"Australia\/Lord_Howe","AUSTRALIA\/MELBOURNE":"Australia\/Melbourne","AUSTRALIA\/PERTH":"Australia\/Perth","AUSTRALIA\/SYDNEY":"Australia\/Sydney","EUROPE\/AMSTERDAM":"Europe\/Amsterdam","EUROPE\/ANDORRA":"Europe\/Andorra","EUROPE\/ASTRAKHAN":"Europe\/Astrakhan","EUROPE\/ATHENS":"Europe\/Athens","EUROPE\/BELGRADE":"Europe\/Belgrade","EUROPE\/BERLIN":"Europe\/Berlin","EUROPE\/BRATISLAVA":"Europe\/Bratislava","EUROPE\/BRUSSELS":"Europe\/Brussels","EUROPE\/BUCHAREST":"Europe\/Bucharest","EUROPE\/BUDAPEST":"Europe\/Budapest","EUROPE\/BUSINGEN":"Europe\/Busingen","EUROPE\/CHISINAU":"Europe\/Chisinau","EUROPE\/COPENHAGEN":"Europe\/Copenhagen","EUROPE\/DUBLIN":"Europe\/Dublin","EUROPE\/GIBRALTAR":"Europe\/Gibraltar","EUROPE\/GUERNSEY":"Europe\/Guernsey","EUROPE\/HELSINKI":"Europe\/Helsinki","EUROPE\/ISLE_OF_MAN":"Europe\/Isle_of_Man","EUROPE\/ISTANBUL":"Europe\/Istanbul","EUROPE\/JERSEY":"Europe\/Jersey","EUROPE\/KALININGRAD":"Europe\/Kaliningrad","EUROPE\/KIEV":"Europe\/Kiev","EUROPE\/KIROV":"Europe\/Kirov","EUROPE\/LISBON":"Europe\/Lisbon","EUROPE\/LJUBLJANA":"Europe\/Ljubljana","EUROPE\/LONDON":"Europe\/London","EUROPE\/LUXEMBOURG":"Europe\/Luxembourg","EUROPE\/MADRID":"Europe\/Madrid","EUROPE\/MALTA":"Europe\/Malta","EUROPE\/MARIEHAMN":"Europe\/Mariehamn","EUROPE\/MINSK":"Europe\/Minsk","EUROPE\/MONACO":"Europe\/Monaco","EUROPE\/MOSCOW":"Europe\/Moscow","EUROPE\/OSLO":"Europe\/Oslo","EUROPE\/PARIS":"Europe\/Paris","EUROPE\/PODGORICA":"Europe\/Podgorica","EUROPE\/PRAGUE":"Europe\/Prague","EUROPE\/RIGA":"Europe\/Riga","EUROPE\/ROME":"Europe\/Rome","EUROPE\/SAMARA":"Europe\/Samara","EUROPE\/SAN_MARINO":"Europe\/San_Marino","EUROPE\/SARAJEVO":"Europe\/Sarajevo","EUROPE\/SARATOV":"Europe\/Saratov","EUROPE\/SIMFEROPOL":"Europe\/Simferopol","EUROPE\/SKOPJE":"Europe\/Skopje","EUROPE\/SOFIA":"Europe\/Sofia","EUROPE\/STOCKHOLM":"Europe\/Stockholm","EUROPE\/TALLINN":"Europe\/Tallinn","EUROPE\/TIRANE":"Europe\/Tirane","EUROPE\/ULYANOVSK":"Europe\/Ulyanovsk","EUROPE\/UZHGOROD":"Europe\/Uzhgorod","EUROPE\/VADUZ":"Europe\/Vaduz","EUROPE\/VATICAN":"Europe\/Vatican","EUROPE\/VIENNA":"Europe\/Vienna","EUROPE\/VILNIUS":"Europe\/Vilnius","EUROPE\/VOLGOGRAD":"Europe\/Volgograd","EUROPE\/WARSAW":"Europe\/Warsaw","EUROPE\/ZAGREB":"Europe\/Zagreb","EUROPE\/ZAPOROZHYE":"Europe\/Zaporozhye","EUROPE\/ZURICH":"Europe\/Zurich","INDIAN\/ANTANANARIVO":"Indian\/Antananarivo","INDIAN\/CHAGOS":"Indian\/Chagos","INDIAN\/CHRISTMAS":"Indian\/Christmas","INDIAN\/COCOS":"Indian\/Cocos","INDIAN\/COMORO":"Indian\/Comoro","INDIAN\/KERGUELEN":"Indian\/Kerguelen","INDIAN\/MAHE":"Indian\/Mahe","INDIAN\/MALDIVES":"Indian\/Maldives","INDIAN\/MAURITIUS":"Indian\/Mauritius","INDIAN\/MAYOTTE":"Indian\/Mayotte","INDIAN\/REUNION":"Indian\/Reunion","PACIFIC\/APIA":"Pacific\/Apia","PACIFIC\/AUCKLAND":"Pacific\/Auckland","PACIFIC\/BOUGAINVILLE":"Pacific\/Bougainville","PACIFIC\/CHATHAM":"Pacific\/Chatham","PACIFIC\/CHUUK":"Pacific\/Chuuk","PACIFIC\/EASTER":"Pacific\/Easter","PACIFIC\/EFATE":"Pacific\/Efate","PACIFIC\/ENDERBURY":"Pacific\/Enderbury","PACIFIC\/FAKAOFO":"Pacific\/Fakaofo","PACIFIC\/FIJI":"Pacific\/Fiji","PACIFIC\/FUNAFUTI":"Pacific\/Funafuti","PACIFIC\/GALAPAGOS":"Pacific\/Galapagos","PACIFIC\/GAMBIER":"Pacific\/Gambier","PACIFIC\/GUADALCANAL":"Pacific\/Guadalcanal","PACIFIC\/GUAM":"Pacific\/Guam","PACIFIC\/HONOLULU":"Pacific\/Honolulu","PACIFIC\/KIRITIMATI":"Pacific\/Kiritimati","PACIFIC\/KOSRAE":"Pacific\/Kosrae","PACIFIC\/KWAJALEIN":"Pacific\/Kwajalein","PACIFIC\/MAJURO":"Pacific\/Majuro","PACIFIC\/MARQUESAS":"Pacific\/Marquesas","PACIFIC\/MIDWAY":"Pacific\/Midway","PACIFIC\/NAURU":"Pacific\/Nauru","PACIFIC\/NIUE":"Pacific\/Niue","PACIFIC\/NORFOLK":"Pacific\/Norfolk","PACIFIC\/NOUMEA":"Pacific\/Noumea","PACIFIC\/PAGO_PAGO":"Pacific\/Pago_Pago","PACIFIC\/PALAU":"Pacific\/Palau","PACIFIC\/PITCAIRN":"Pacific\/Pitcairn","PACIFIC\/POHNPEI":"Pacific\/Pohnpei","PACIFIC\/PORT_MORESBY":"Pacific\/Port_Moresby","PACIFIC\/RAROTONGA":"Pacific\/Rarotonga","PACIFIC\/SAIPAN":"Pacific\/Saipan","PACIFIC\/TAHITI":"Pacific\/Tahiti","PACIFIC\/TARAWA":"Pacific\/Tarawa","PACIFIC\/TONGATAPU":"Pacific\/Tongatapu","PACIFIC\/WAKE":"Pacific\/Wake","PACIFIC\/WALLIS":"Pacific\/Wallis","UTC":"UTC"},"us":{"AL":"Alabama","AK":"Alaska","AZ":"Arizona","AR":"Arkansas","CA":"California","CO":"Colorado","CT":"Connecticut","DE":"Delaware","DC":"District of Columbia","FL":"Florida","GA":"Georgia","HI":"Hawaii","ID":"Idaho","IL":"Illinois","IN":"Indiana","IA":"Iowa","KS":"Kansas","KY":"Kentucky","LA":"Louisiana","ME":"Maine","MD":"Maryland","MA":"Massachusetts","MI":"Michigan","MN":"Minnesota","MS":"Mississippi","MO":"Missouri","MT":"Montana","NE":"Nebraska","NV":"Nevada","NH":"New Hampshire","NJ":"New Jersey","NM":"New Mexico","NY":"New York","NC":"North Carolina","ND":"North Dakota","OH":"Ohio","OK":"Oklahoma","OR":"Oregon","PA":"Pennsylvania","RI":"Rhode Island","SC":"South Carolina","SD":"South Dakota","TN":"Tennessee","TX":"Texas","UT":"Utah","VT":"Vermont","VA":"Virginia","WA":"Washington","WV":"West Virginia","WI":"Wisconsin","WY":"Wyoming","AA":"Armed Forces Americas","AE":"Armed Forces Europe","AP":"Armed Forces Pacific","AS":"American Samoa","FM":"Federated States of Micronesia","GU":"Guam Gu","MH":"Marshall Islands","MP":"Northern Mariana Islands","PW":"Palau","PR":"Puerto Rico","VI":"Virgin Islands"}}